{
  "M2": [
    {
      "id": "M2_1",
      "name": "Yenikapı",
      "lat": 41.005556,
      "lng": 28.952222
    },
    {
      "id": "M2_2",
      "name": "Vezneciler",
      "lat": 41.011944,
      "lng": 28.957778
    },
    {
      "id": "M2_3",
      "name": "Haliç",
      "lat": 41.0225,
      "lng": 28.965833
    },
    {
      "id": "M2_4",
      "name": "Şişhane",
      "lat": 41.026944,
      "lng": 28.973056
    },
    {
      "id": "M2_5",
      "name": "Taksim",
      "lat": 41.036944,
      "lng": 28.985
    },
    {
      "id": "M2_6",
      "name": "Osmanbey",
      "lat": 41.048889,
      "lng": 28.989722
    },
    {
      "id": "M2_7",
      "name": "Şişli-Mecidiyeköy",
      "lat": 41.063333,
      "lng": 28.992778
    },
    {
      "id": "M2_8",
      "name": "Gayrettepe",
      "lat": 41.0675,
      "lng": 28.9975
    },
    {
      "id": "M2_9",
      "name": "Levent",
      "lat": 41.081111,
      "lng": 28.993333
    },
    {
      "id": "M2_10",
      "name": "4.Levent",
      "lat": 41.087778,
      "lng": 29.008889
    },
    {
      "id": "M2_11",
      "name": "Sanayi Mahallesi",
      "lat": 41.094167,
      "lng": 29.015
    },
    {
      "id": "M2_12",
      "name": "Seyrantepe",
      "lat": 41.101667,
      "lng": 29.021667
    },
    {
      "id": "M2_13",
      "name": "İTÜ-Ayazağa",
      "lat": 41.106667,
      "lng": 29.028333
    },
    {
      "id": "M2_14",
      "name": "Atatürk Oto Sanayi",
      "lat": 41.112778,
      "lng": 29.034444
    },
    {
      "id": "M2_15",
      "name": "Darüşşafaka",
      "lat": 41.118889,
      "lng": 29.040556
    },
    {
      "id": "M2_16",
      "name": "Hacıosman",
      "lat": 41.125,
      "lng": 29.046667
    }
  ],
  "M4": [
    {
      "id": "M4_1",
      "name": "Kadıköy",
      "lat": 40.990278,
      "lng": 29.022222
    },
    {
      "id": "M4_2",
      "name": "Ayrılık Çeşmesi",
      "lat": 40.986111,
      "lng": 29.035265
    },
    {
      "id": "M4_3",
      "name": "Acıbadem",
      "lat": 40.981945,
      "lng": 29.048308
    },
    {
      "id": "M4_4",
      "name": "Ünalan",
      "lat": 40.977778,
      "lng": 29.061351
    },
    {
      "id": "M4_5",
      "name": "Göztepe",
      "lat": 40.973611,
      "lng": 29.074394
    },
    {
      "id": "M4_6",
      "name": "Yenisahra",
      "lat": 40.969445,
      "lng": 29.087437
    },
    {
      "id": "M4_7",
      "name": "Kozyatağı",
      "lat": 40.965278,
      "lng": 29.10048
    },
    {
      "id": "M4_8",
      "name": "Bostancı",
      "lat": 40.961111,
      "lng": 29.113523
    },
    {
      "id": "M4_9",
      "name": "Küçükyalı",
      "lat": 40.956945,
      "lng": 29.126566
    },
    {
      "id": "M4_10",
      "name": "Maltepe",
      "lat": 40.952778,
      "lng": 29.139609
    },
    {
      "id": "M4_11",
      "name": "Huzurevi",
      "lat": 40.948611,
      "lng": 29.152652
    },
    {
      "id": "M4_12",
      "name": "Gülsuyu",
      "lat": 40.944445,
      "lng": 29.165695
    },
    {
      "id": "M4_13",
      "name": "Esenkent",
      "lat": 40.940278,
      "lng": 29.178737
    },
    {
      "id": "M4_14",
      "name": "Hastane-Adliye",
      "lat": 40.936111,
      "lng": 29.19178
    },
    {
      "id": "M4_15",
      "name": "Soğanlık",
      "lat": 40.931944,
      "lng": 29.204823
    },
    {
      "id": "M4_16",
      "name": "Kartal",
      "lat": 40.927778,
      "lng": 29.217866
    },
    {
      "id": "M4_17",
      "name": "Yakacık-Adnan Kahveci",
      "lat": 40.923611,
      "lng": 29.230909
    },
    {
      "id": "M4_18",
      "name": "Pendik",
      "lat": 40.919444,
      "lng": 29.243952
    },
    {
      "id": "M4_19",
      "name": "Tavşantepe",
      "lat": 40.915278,
      "lng": 29.256995
    },
    {
      "id": "M4_20",
      "name": "Fevzi Çakmak-Hastane",
      "lat": 40.911111,
      "lng": 29.270038
    },
    {
      "id": "M4_21",
      "name": "Yayalar-Şeyhli",
      "lat": 40.906944,
      "lng": 29.283081
    },
    {
      "id": "M4_22",
      "name": "Kurtköy",
      "lat": 40.902778,
      "lng": 29.296124
    },
    {
      "id": "M4_23",
      "name": "Sabiha Gökçen",
      "lat": 40.898611,
      "lng": 29.309167
    }
  ],
  "M5": [
    {
      "id": "M5_1",
      "name": "Üsküdar",
      "lat": 41.021667,
      "lng": 29.015833
    },
    {
      "id": "M5_2",
      "name": "Fıstıkağacı",
      "lat": 41.021908,
      "lng": 29.027
    },
    {
      "id": "M5_3",
      "name": "Bağlarbaşı",
      "lat": 41.022148,
      "lng": 29.038166
    },
    {
      "id": "M5_4",
      "name": "Altunizade",
      "lat": 41.022389,
      "lng": 29.049333
    },
    {
      "id": "M5_5",
      "name": "Kısıklı",
      "lat": 41.02263,
      "lng": 29.0605
    },
    {
      "id": "M5_6",
      "name": "Bulgurlu",
      "lat": 41.022871,
      "lng": 29.071666
    },
    {
      "id": "M5_7",
      "name": "Ümraniye",
      "lat": 41.023111,
      "lng": 29.082833
    },
    {
      "id": "M5_8",
      "name": "Çarşı",
      "lat": 41.023352,
      "lng": 29.094
    },
    {
      "id": "M5_9",
      "name": "Yamanevler",
      "lat": 41.023593,
      "lng": 29.105166
    },
    {
      "id": "M5_10",
      "name": "Çakmak",
      "lat": 41.023834,
      "lng": 29.116333
    },
    {
      "id": "M5_11",
      "name": "Ihlamurkuyu",
      "lat": 41.024074,
      "lng": 29.1275
    },
    {
      "id": "M5_12",
      "name": "Altınşehir",
      "lat": 41.024315,
      "lng": 29.138666
    },
    {
      "id": "M5_13",
      "name": "İmam Hatip",
      "lat": 41.024556,
      "lng": 29.149833
    },
    {
      "id": "M5_14",
      "name": "Dudullu",
      "lat": 41.024797,
      "lng": 29.161
    },
    {
      "id": "M5_15",
      "name": "Necip Fazıl",
      "lat": 41.025037,
      "lng": 29.172166
    },
    {
      "id": "M5_16",
      "name": "Çekmeköy",
      "lat": 41.025278,
      "lng": 29.183333
    }
  ],
  "M1A": [
    {
      "id": "M1A_1",
      "name": "Yenikapı",
      "lat": 41.005556,
      "lng": 28.952222
    },
    {
      "id": "M1A_2",
      "name": "Aksaray",
      "lat": 41.003768,
      "lng": 28.943594
    },
    {
      "id": "M1A_3",
      "name": "Emniyet-Fatih",
      "lat": 41.001979,
      "lng": 28.934965
    },
    {
      "id": "M1A_4",
      "name": "Topkapı-Ulubatlı",
      "lat": 41.000191,
      "lng": 28.926337
    },
    {
      "id": "M1A_5",
      "name": "Bayrampaşa-Maltepe",
      "lat": 40.998403,
      "lng": 28.917708
    },
    {
      "id": "M1A_6",
      "name": "Sağmalcılar",
      "lat": 40.996615,
      "lng": 28.90908
    },
    {
      "id": "M1A_7",
      "name": "Kocatepe",
      "lat": 40.994827,
      "lng": 28.900451
    },
    {
      "id": "M1A_8",
      "name": "Otogar",
      "lat": 40.993038,
      "lng": 28.891823
    },
    {
      "id": "M1A_9",
      "name": "Terazidere",
      "lat": 40.99125,
      "lng": 28.883195
    },
    {
      "id": "M1A_10",
      "name": "Davutpaşa-YTÜ",
      "lat": 40.989462,
      "lng": 28.874566
    },
    {
      "id": "M1A_11",
      "name": "Merter",
      "lat": 40.987673,
      "lng": 28.865938
    },
    {
      "id": "M1A_12",
      "name": "Zeytinburnu",
      "lat": 40.985885,
      "lng": 28.857309
    },
    {
      "id": "M1A_13",
      "name": "Bakırköy-İncirli",
      "lat": 40.984097,
      "lng": 28.848681
    },
    {
      "id": "M1A_14",
      "name": "Bahçelievler",
      "lat": 40.982309,
      "lng": 28.840052
    },
    {
      "id": "M1A_15",
      "name": "Ataköy-Şirinevler",
      "lat": 40.980521,
      "lng": 28.831424
    },
    {
      "id": "M1A_16",
      "name": "Yenibosna",
      "lat": 40.978732,
      "lng": 28.822795
    },
    {
      "id": "M1A_17",
      "name": "Atatürk Havalimanı",
      "lat": 40.976944,
      "lng": 28.814167
    }
  ],
  "34BZ": [
    {
      "id": "34BZ_1",
      "name": "Avcılar",
      "lat": 41.021111,
      "lng": 28.721111
    },
    {
      "id": "34BZ_2",
      "name": "Beylikdüzü",
      "lat": 41.008333,
      "lng": 28.64
    },
    {
      "id": "34BZ_3",
      "name": "Sefaköy",
      "lat": 41.017778,
      "lng": 28.793333
    },
    {
      "id": "34BZ_4",
      "name": "Şirinevler",
      "lat": 41.016667,
      "lng": 28.851667
    },
    {
      "id": "34BZ_5",
      "name": "Merter",
      "lat": 41.012778,
      "lng": 28.898611
    },
    {
      "id": "34BZ_6",
      "name": "Cevizlibağ",
      "lat": 41.014722,
      "lng": 28.918333
    },
    {
      "id": "34BZ_7",
      "name": "Zeytinburnu",
      "lat": 41.010278,
      "lng": 28.925833
    },
    {
      "id": "34BZ_8",
      "name": "Topkapı",
      "lat": 41.013611,
      "lng": 28.923611
    },
    {
      "id": "34BZ_9",
      "name": "Edirnekapı",
      "lat": 41.029167,
      "lng": 28.935833
    },
    {
      "id": "34BZ_10",
      "name": "Halıcıoğlu",
      "lat": 41.0425,
      "lng": 28.955833
    },
    {
      "id": "34BZ_11",
      "name": "Okmeydanı",
      "lat": 41.060278,
      "lng": 28.967778
    },
    {
      "id": "34BZ_12",
      "name": "Darülaceze-Perpa",
      "lat": 41.062222,
      "lng": 28.98
    },
    {
      "id": "34BZ_13",
      "name": "Mecidiyeköy",
      "lat": 41.063333,
      "lng": 28.992778
    },
    {
      "id": "34BZ_14",
      "name": "Zincirlikuyu",
      "lat": 41.067222,
      "lng": 29.000833
    }
  ],
  "34B": [
    {
      "id": "34B_1",
      "name": "Avcılar",
      "lat": 41.021111,
      "lng": 28.721111
    },
    {
      "id": "34B_2",
      "name": "Beylikdüzü",
      "lat": 41.008333,
      "lng": 28.64
    },
    {
      "id": "34B_3",
      "name": "Sefaköy",
      "lat": 41.017778,
      "lng": 28.793333
    },
    {
      "id": "34B_4",
      "name": "Şirinevler",
      "lat": 41.016667,
      "lng": 28.851667
    },
    {
      "id": "34B_5",
      "name": "Merter",
      "lat": 41.012778,
      "lng": 28.898611
    },
    {
      "id": "34B_6",
      "name": "Cevizlibağ",
      "lat": 41.014722,
      "lng": 28.918333
    },
    {
      "id": "34B_7",
      "name": "Zeytinburnu",
      "lat": 41.010278,
      "lng": 28.925833
    },
    {
      "id": "34B_8",
      "name": "Topkapı",
      "lat": 41.013611,
      "lng": 28.923611
    },
    {
      "id": "34B_9",
      "name": "Edirnekapı",
      "lat": 41.029167,
      "lng": 28.935833
    },
    {
      "id": "34B_10",
      "name": "Okmeydanı",
      "lat": 41.060278,
      "lng": 28.967778
    },
    {
      "id": "34B_11",
      "name": "Mecidiyeköy",
      "lat": 41.063333,
      "lng": 28.992778
    },
    {
      "id": "34B_12",
      "name": "Zincirlikuyu",
      "lat": 41.067222,
      "lng": 29.000833
    },
    {
      "id": "34B_13",
      "name": "15 Temmuz Köprüsü",
      "lat": 41.045833,
      "lng": 29.033889
    },
    {
      "id": "34B_14",
      "name": "Acıbadem",
      "lat": 40.993889,
      "lng": 29.055
    },
    {
      "id": "34B_15",
      "name": "Kadıköy",
      "lat": 40.990278,
      "lng": 29.022222
    }
  ],
  "T1": [
    {
      "id": "T1_1",
      "name": "Kabataş",
      "lat": 41.034722,
      "lng": 28.993611
    },
    {
      "id": "T1_2",
      "name": "Fındıklı",
      "lat": 41.031667,
      "lng": 28.985833
    },
    {
      "id": "T1_3",
      "name": "Tophane",
      "lat": 41.028611,
      "lng": 28.978056
    },
    {
      "id": "T1_4",
      "name": "Karaköy",
      "lat": 41.025556,
      "lng": 28.970278
    },
    {
      "id": "T1_5",
      "name": "Eminönü",
      "lat": 41.0174,
      "lng": 28.9706
    },
    {
      "id": "T1_6",
      "name": "Sirkeci",
      "lat": 41.014722,
      "lng": 28.963889
    },
    {
      "id": "T1_7",
      "name": "Gülhane",
      "lat": 41.011944,
      "lng": 28.957222
    },
    {
      "id": "T1_8",
      "name": "Sultanahmet",
      "lat": 41.009167,
      "lng": 28.950556
    },
    {
      "id": "T1_9",
      "name": "Çemberlitaş",
      "lat": 41.006389,
      "lng": 28.943889
    },
    {
      "id": "T1_10",
      "name": "Beyazıt-Kapalıçarşı",
      "lat": 41.009722,
      "lng": 28.937222
    },
    {
      "id": "T1_11",
      "name": "Laleli-Üniversite",
      "lat": 41.0125,
      "lng": 28.930556
    },
    {
      "id": "T1_12",
      "name": "Aksaray",
      "lat": 41.009722,
      "lng": 28.951389
    },
    {
      "id": "T1_13",
      "name": "Yusufpaşa",
      "lat": 41.013889,
      "lng": 28.944444
    },
    {
      "id": "T1_14",
      "name": "Haseki",
      "lat": 41.018056,
      "lng": 28.9375
    },
    {
      "id": "T1_15",
      "name": "Fındıkzade",
      "lat": 41.022222,
      "lng": 28.930556
    },
    {
      "id": "T1_16",
      "name": "Topkapı",
      "lat": 41.013611,
      "lng": 28.923611
    },
    {
      "id": "T1_17",
      "name": "Cevizlibağ",
      "lat": 41.014722,
      "lng": 28.918333
    },
    {
      "id": "T1_18",
      "name": "Merter",
      "lat": 41.012778,
      "lng": 28.898611
    },
    {
      "id": "T1_19",
      "name": "Güngören",
      "lat": 41.018611,
      "lng": 28.885833
    },
    {
      "id": "T1_20",
      "name": "Bağcılar",
      "lat": 41.039722,
      "lng": 28.858611
    }
  ],
  "500T": [
    {
      "id": "500T_1",
      "name": "Bağcılar",
      "lat": 41.039722,
      "lng": 28.858611
    },
    {
      "id": "500T_2",
      "name": "Güngören",
      "lat": 41.018611,
      "lng": 28.885833
    },
    {
      "id": "500T_3",
      "name": "Merter",
      "lat": 41.012778,
      "lng": 28.898611
    },
    {
      "id": "500T_4",
      "name": "Cevizlibağ",
      "lat": 41.014722,
      "lng": 28.918333
    },
    {
      "id": "500T_5",
      "name": "Zeytinburnu",
      "lat": 41.010278,
      "lng": 28.925833
    },
    {
      "id": "500T_6",
      "name": "Mecidiyeköy",
      "lat": 41.063333,
      "lng": 28.992778
    },
    {
      "id": "500T_7",
      "name": "Zincirlikuyu",
      "lat": 41.067222,
      "lng": 29.000833
    },
    {
      "id": "500T_8",
      "name": "Acıbadem",
      "lat": 40.993889,
      "lng": 29.055
    },
    {
      "id": "500T_9",
      "name": "Kozyatağı",
      "lat": 41.001389,
      "lng": 29.101667
    },
    {
      "id": "500T_10",
      "name": "Bostancı",
      "lat": 41.078472,
      "lng": 29.093056
    }
  ],
  "MARMARAY": [
    {
      "id": "MR_1",
      "name": "Halkalı",
      "lat": 41.012,
      "lng": 28.735
    },
    {
      "id": "MR_2",
      "name": "Mustafa Kemal",
      "lat": 41.015,
      "lng": 28.78
    },
    {
      "id": "MR_3",
      "name": "Küçükçekmece",
      "lat": 41.018,
      "lng": 28.825
    },
    {
      "id": "MR_4",
      "name": "Florya",
      "lat": 41.021,
      "lng": 28.87
    },
    {
      "id": "MR_5",
      "name": "Yenikapı",
      "lat": 41.005556,
      "lng": 28.952222
    },
    {
      "id": "MR_6",
      "name": "Sirkeci",
      "lat": 41.014722,
      "lng": 28.963889
    },
    {
      "id": "MR_7",
      "name": "Üsküdar",
      "lat": 41.021667,
      "lng": 29.015833
    },
    {
      "id": "MR_8",
      "name": "Ayrılık Çeşmesi",
      "lat": 40.992778,
      "lng": 29.042778
    },
    {
      "id": "MR_9",
      "name": "Bostancı",
      "lat": 41.003611,
      "lng": 29.113333
    },
    {
      "id": "MR_10",
      "name": "Pendik",
      "lat": 41.0175,
      "lng": 29.23
    },
    {
      "id": "MR_11",
      "name": "Gebze",
      "lat": 40.802778,
      "lng": 29.430556
    }
  ],
  "M11": [
    {
      "id": "M11_1",
      "name": "Gayrettepe",
      "lat": 41.0675,
      "lng": 28.9975
    },
    {
      "id": "M11_2",
      "name": "Kağıthane",
      "lat": 41.078,
      "lng": 28.975
    },
    {
      "id": "M11_3",
      "name": "Mahmutbey",
      "lat": 41.056667,
      "lng": 28.826667
    },
    {
      "id": "M11_4",
      "name": "İkitelli",
      "lat": 41.062,
      "lng": 28.801
    },
    {
      "id": "M11_5",
      "name": "Halkalı",
      "lat": 41.012,
      "lng": 28.735
    },
    {
      "id": "M11_6",
      "name": "İstanbul Havalimanı",
      "lat": 41.276944,
      "lng": 28.727222
    }
  ]
}